[
  {
    "id": "mum-gov_offices-01",
    "name": "Passport Seva Kendra - Lower Parel",
    "type": "gov_offices",
    "city": "mumbai",
    "lat": 18.997,
    "lng": 72.83,
    "address": "Lower Parel, Mumbai 400013",
    "gmaps_link": "https://maps.google.com/?q=18.9970,72.8300",
    "added_by": "anaydhawan"
  },
  {
    "id": "mum-gov_offices-02",
    "name": "Central Post Office - Fort",
    "type": "gov_offices",
    "city": "mumbai",
    "lat": 18.965,
    "lng": 72.8355,
    "address": "Fort, Mumbai 400001",
    "gmaps_link": "https://maps.google.com/?q=18.9650,72.8355",
    "added_by": "anaydhawan"
  },
  {
    "id": "mum-gov_offices-03",
    "name": "Mumbai GPO",
    "type": "gov_offices",
    "city": "mumbai",
    "lat": 18.9374,
    "lng": 72.8374,
    "address": "Walchand Hirachand Marg, Fort, Mumbai 400001",
    "gmaps_link": "https://maps.google.com/?q=18.9374,72.8374",
    "added_by": "yashkewlani"
  },
  {
    "id": "mum-gov_offices-04",
    "name": "Maharashtra Public Service Commission Office",
    "type": "gov_offices",
    "city": "mumbai",
    "lat": 18.9258,
    "lng": 72.8237,
    "address": "CGO Complex, Nariman Point, Mumbai 400021",
    "gmaps_link": "https://maps.google.com/?q=18.9258,72.8237",
    "added_by": "yashkewlani"
  },
  {
    "id": "mum-gov_offices-05",
    "name": "Regional Passport Office Mumbai",
    "type": "gov_offices",
    "city": "mumbai",
    "lat": 18.9374,
    "lng": 72.8348,
    "address": "Badruddin Tyabji Lane, Fort, Mumbai 400001",
    "gmaps_link": "https://maps.google.com/?q=18.9374,72.8348",
    "added_by": "yashkewlani"
  },
  {
    "id": "mum-gov_offices-06",
    "name": "RTO Mumbai, Tardeo",
    "type": "gov_offices",
    "city": "mumbai",
    "lat": 18.9702,
    "lng": 72.8161,
    "address": "Tardeo, Mumbai 400034",
    "gmaps_link": "https://maps.google.com/?q=18.9702,72.8161",
    "added_by": "yashkewlani"
  },
  {
    "id": "thn-gov_offices-01",
    "name": "Passport Seva Kendra - Thane",
    "type": "gov_offices",
    "city": "thane",
    "lat": 19.1972,
    "lng": 72.9722,
    "address": "Thane West, Thane 400601",
    "gmaps_link": "https://maps.google.com/?q=19.1972,72.9722",
    "added_by": "anaydhawan"
  },
  {
    "id": "thn-gov_offices-02",
    "name": "Thane Head Post Office",
    "type": "gov_offices",
    "city": "thane",
    "lat": 19.2183,
    "lng": 72.9781,
    "address": "Thane West, Thane 400601",
    "gmaps_link": "https://maps.google.com/?q=19.2183,72.9781",
    "added_by": "anaydhawan"
  },
  {
    "id": "thn-gov_offices-03",
    "name": "Thane District Collectorate",
    "type": "gov_offices",
    "city": "thane",
    "lat": 19.1972,
    "lng": 72.9713,
    "address": "Collector Office Road, Thane 400601",
    "gmaps_link": "https://maps.google.com/?q=19.1972,72.9713",
    "added_by": "yashkewlani"
  },
  {
    "id": "thn-gov_offices-04",
    "name": "RTO Thane",
    "type": "gov_offices",
    "city": "thane",
    "lat": 19.2068,
    "lng": 72.9728,
    "address": "Thane West, Thane 400601",
    "gmaps_link": "https://maps.google.com/?q=19.2068,72.9728",
    "added_by": "yashkewlani"
  },
  {
    "id": "thn-gov_offices-05",
    "name": "MSRTC Thane Bus Stand",
    "type": "gov_offices",
    "city": "thane",
    "lat": 19.2139,
    "lng": 72.9768,
    "address": "Thane Station Area, Thane 400601",
    "gmaps_link": "https://maps.google.com/?q=19.2139,72.9768",
    "added_by": "yashkewlani"
  },
  {
    "id": "nvm-gov_offices-01",
    "name": "Passport Seva Kendra, Navi Mumbai",
    "type": "gov_offices",
    "city": "navi_mumbai",
    "lat": 19.083,
    "lng": 73.028,
    "address": "Turbhe, Navi Mumbai 400705",
    "gmaps_link": "https://maps.google.com/?q=19.0830,73.0280",
    "added_by": "yashkewlani"
  },
  {
    "id": "nvm-gov_offices-02",
    "name": "NMMC Head Office",
    "type": "gov_offices",
    "city": "navi_mumbai",
    "lat": 19.0218,
    "lng": 73.031,
    "address": "CBD Belapur, Navi Mumbai 400614",
    "gmaps_link": "https://maps.google.com/?q=19.0218,73.0310",
    "added_by": "yashkewlani"
  },
  {
    "id": "nvm-gov_offices-03",
    "name": "RTO Navi Mumbai",
    "type": "gov_offices",
    "city": "navi_mumbai",
    "lat": 19.076,
    "lng": 73.013,
    "address": "Turbhe, Navi Mumbai 400705",
    "gmaps_link": "https://maps.google.com/?q=19.0760,73.0130",
    "added_by": "yashkewlani"
  }
]
